{"type":"FeatureCollection","features":[{"type":"Feature","properties":{"book":1,"place":"Nieuwkoop","originalPlace":"Nieuwkoop","description":"Tour de la rielle (?) abbaye","date":"1802-06-11","edges":[]},"geometry":{"type":"Point","coordinates":[4.77977,52.15046]}},
{"type":"Feature","properties":{"book":1,"place":"Gorinchem","originalPlace":"Gorinchem","description":"","date":"1802-06-24","edges":[]},"geometry":{"type":"Point","coordinates":[4.97266,51.82955]}},
{"type":"Feature","properties":{"book":1,"place":"Brielle","originalPlace":"Brielle","description":"","date":"1802-07-08","edges":[]},"geometry":{"type":"Point","coordinates":[4.16225,51.90264]}},
{"type":"Feature","properties":{"book":1,"place":"Zierikzee","originalPlace":"Zierikzee","description":"","date":"1802-07-10","edges":[{"place":"Brielle","coordinates":[4.16225,51.90264]}]},"geometry":{"type":"Point","coordinates":[3.91477,51.65028]}},
{"type":"Feature","properties":{"book":1,"place":"Middelburg","originalPlace":"Middelbourg","description":"","date":"1802-07-14","edges":[{"place":"Zierikzee","coordinates":[3.91477,51.65028]}]},"geometry":{"type":"Point","coordinates":[3.61477,51.49958]}},
{"type":"Feature","properties":{"book":1,"place":"Breda","originalPlace":"Breda","description":"","date":"1802-07-21","edges":[{"place":"Gorinchem","coordinates":[4.97266,51.82955]}]},"geometry":{"type":"Point","coordinates":[4.777659944444444,51.58935072222222]}},
{"type":"Feature","properties":{"book":1,"place":"Hilvarenbeek","originalPlace":"Hilvarenbeek","description":"","date":"1802-07-27","edges":[{"place":"Breda","coordinates":[4.777659944444444,51.58935072222222]}]},"geometry":{"type":"Point","coordinates":[5.139323555555555,51.48547661111111]}},
{"type":"Feature","properties":{"book":1,"place":"Lommel","originalPlace":"Lommel","description":"","date":"1802-07-31","edges":[{"place":"Hilvarenbeek","coordinates":[5.139323555555555,51.48547661111111]}]},"geometry":{"type":"Point","coordinates":[5.317706972222222,51.22869991666667]}},
{"type":"Feature","properties":{"book":1,"place":"Hoogstraten","originalPlace":"Hoogstraten","description":"","date":"1802-08-04","edges":[{"place":"Breda","coordinates":[4.777659944444444,51.58935072222222]},{"place":"Hilvarenbeek","coordinates":[5.139323555555555,51.48547661111111]},{"place":"Lommel","coordinates":[5.317706972222222,51.22869991666667]}]},"geometry":{"type":"Point","coordinates":[4.764301694444445,51.40111397222222]}},
{"type":"Feature","properties":{"book":1,"place":"Hulst","originalPlace":"Hulst","description":"","date":"1802-08-12","edges":[{"place":"Zierikzee","coordinates":[3.91477,51.65028]},{"place":"Middelburg","coordinates":[3.61477,51.49958]}]},"geometry":{"type":"Point","coordinates":[4.056537555555556,51.28083011111111]}},
{"type":"Feature","properties":{"book":1,"place":"Assenede","originalPlace":"Assenede","description":"","date":"1802-08-17","edges":[{"place":"Middelburg","coordinates":[3.61477,51.49958]},{"place":"Hulst","coordinates":[4.056537555555556,51.28083011111111]}]},"geometry":{"type":"Point","coordinates":[3.7556830000000003,51.22798736111111]}},
{"type":"Feature","properties":{"book":1,"place":"Oostende","originalPlace":"Oostende","description":"","date":"1802-08-21","edges":[]},"geometry":{"type":"Point","coordinates":[2.9222039722222224,51.22984613888889]}},
{"type":"Feature","properties":{"book":1,"place":"Cassel","originalPlace":"Mont Cassel","description":"","date":"1802-08-25","edges":[]},"geometry":{"type":"Point","coordinates":[2.4901846111111112,50.79931386111111]}},
{"type":"Feature","properties":{"book":1,"place":"Hondschote","originalPlace":"Hondschoote","description":"","date":"1802-08-26","edges":[]},"geometry":{"type":"Point","coordinates":[2.5878646944444443,50.98170069444445]}},
{"type":"Feature","properties":{"book":1,"place":"Nieuwpoort","originalPlace":"Nieuwport","description":"","date":"1802-08-28","edges":[]},"geometry":{"type":"Point","coordinates":[2.7527255555555556,51.129280055555554]}},
{"type":"Feature","properties":{"book":1,"place":"Diksmuide","originalPlace":"Damunde","description":"","date":"1802-08-30","edges":[]},"geometry":{"type":"Point","coordinates":[2.8660855555555558,51.034066583333335]}},
{"type":"Feature","properties":{"book":1,"place":"Hooglede","originalPlace":"Hoogleden","description":"","date":"1802-09-01","edges":[]},"geometry":{"type":"Point","coordinates":[3.084025138888889,50.978396000000004]}},
{"type":"Feature","properties":{"book":1,"place":"Tielt","originalPlace":"Thielt","description":"","date":"1802-09-02","edges":[]},"geometry":{"type":"Point","coordinates":[3.3291222777777776,51.00049577777778]}},
{"type":"Feature","properties":{"book":1,"place":"Brugge","originalPlace":"Bruges","description":"","date":"1802-09-05","edges":[]},"geometry":{"type":"Point","coordinates":[3.2268150277777776,51.208409055555556]}},
{"type":"Feature","properties":{"book":1,"place":"Aardenburg","originalPlace":"Aardenbourg","description":"","date":"1802-09-08","edges":[{"place":"Brugge","coordinates":[3.2268150277777776,51.208409055555556]},{"place":"Assenede","coordinates":[3.7556830000000003,51.22798736111111]},{"place":"Middelburg","coordinates":[3.61477,51.49958]}]},"geometry":{"type":"Point","coordinates":[3.450080888888889,51.27328552777778]}},
{"type":"Feature","properties":{"book":1,"place":"Antwerpen","originalPlace":"Anvers","description":"Tour de notre Dame","date":"1802-09-15","edges":[{"place":"Hoogstraten","coordinates":[4.764301694444445,51.40111397222222]},{"place":"Hulst","coordinates":[4.056537555555556,51.28083011111111]}]},"geometry":{"type":"Point","coordinates":[4.403276527777778,51.220670500000004]}},
{"type":"Feature","properties":{"book":1,"place":"Bergen op Zoom","originalPlace":"Bergens op Zoom","description":"","date":"1802-09-20","edges":[{"place":"Antwerpen","coordinates":[4.403276527777778,51.220670500000004]},{"place":"Zierikzee","coordinates":[3.91477,51.65028]},{"place":"Breda","coordinates":[4.777659944444444,51.58935072222222]},{"place":"Hoogstraten","coordinates":[4.764301694444445,51.40111397222222]},{"place":"Hulst","coordinates":[4.056537555555556,51.28083011111111]}]},"geometry":{"type":"Point","coordinates":[4.290536111111111,51.494723083333334]}},
{"type":"Feature","properties":{"book":1,"place":"Willemstad","originalPlace":"Willemstad","description":"","date":"1802-09-24","edges":[{"place":"Bergen op Zoom","coordinates":[4.290536111111111,51.494723083333334]},{"place":"Breda","coordinates":[4.777659944444444,51.58935072222222]},{"place":"Brielle","coordinates":[4.16225,51.90264]},{"place":"Zierikzee","coordinates":[3.91477,51.65028]}]},"geometry":{"type":"Point","coordinates":[4.440558972222222,51.692307694444445]}},
{"type":"Feature","properties":{"book":1,"place":"Rotterdam","originalPlace":"Rotterdam","description":"","date":"1802-09-27","edges":[{"place":"Brielle","coordinates":[4.16225,51.90264]},{"place":"Den Haag","coordinates":[4.3091812222222226,52.07778841666667]},{"place":"Dordrecht","coordinates":[4.662706888888889,51.81457977777777]},{"place":"Gouda","coordinates":[4.713431305555556,52.01114116666667]},{"place":"Leiden","coordinates":[4.494308277777778,52.1564915]},{"place":"Willemstad","coordinates":[4.440558972222222,51.692307694444445]}]},"geometry":{"type":"Point","coordinates":[4.487647222222222,51.92186258333333]}},
{"type":"Feature","properties":{"book":2,"place":"Haarlem","originalPlace":"Haarlem","description":"","date":"1803-06-06","edges":[{"place":"Nieuwkoop","coordinates":[4.77977,52.15046]}]},"geometry":{"type":"Point","coordinates":[4.639968916666667,52.38160038888889]}},
{"type":"Feature","properties":{"book":2,"place":"Amsterdam","originalPlace":"Amsterdam","description":"Tour de l'Ouest","date":"1803-06-14","edges":[{"place":"Nieuwkoop","coordinates":[4.77977,52.15046]},{"place":"Haarlem","coordinates":[4.639968916666667,52.38160038888889]}]},"geometry":{"type":"Point","coordinates":[4.886434888888889,52.37505688888889]}},
{"type":"Feature","properties":{"book":2,"place":"Naarden","originalPlace":"Naarden","description":"","date":"1803-07-02","edges":[{"place":"Amsterdam","coordinates":[4.886434888888889,52.37505688888889]}]},"geometry":{"type":"Point","coordinates":[5.165325666666666,52.29621572222222]}},
{"type":"Feature","properties":{"book":2,"place":"Alkmaar","originalPlace":"Alkmaar","description":"Tour de poids","date":"1803-07-18","edges":[{"place":"Haarlem","coordinates":[4.639968916666667,52.38160038888889]},{"place":"Amsterdam","coordinates":[4.886434888888889,52.37505688888889]}]},"geometry":{"type":"Point","coordinates":[4.752936833333333,52.63193513888889]}},
{"type":"Feature","properties":{"book":2,"place":"Edam","originalPlace":"Edam","description":"Tour de carillon","date":"1803-07-24","edges":[{"place":"Alkmaar","coordinates":[4.752936833333333,52.63193513888889]},{"place":"Amsterdam","coordinates":[4.886434888888889,52.37505688888889]},{"place":"Naarden","coordinates":[5.165325666666666,52.29621572222222]}]},"geometry":{"type":"Point","coordinates":[5.049931111111111,52.51289302777778]}},
{"type":"Feature","properties":{"book":2,"place":"Kijkduin","originalPlace":"Signal de Kijkduin a Huisduinen?","description":"","date":"1803-07-30","edges":[{"place":"Schagen","coordinates":[4.798949666666667,52.78726847222222]},{"place":"Oosterland","coordinates":[5.013460805555555,52.93206922222222]}]},"geometry":{"type":"Point","coordinates":[4.724343583333333,52.95171783333333]}},
{"type":"Feature","properties":{"book":2,"place":"Schagen","originalPlace":"Schagen","description":"","date":"1803-08-02","edges":[{"place":"Alkmaar","coordinates":[4.752936833333333,52.63193513888889]},{"place":"Hoorn","coordinates":[5.062785722222222,52.64101911111111]},{"place":"Medemblik","coordinates":[5.106387888888889,52.77379641666666]}]},"geometry":{"type":"Point","coordinates":[4.798949666666667,52.78726847222222]}},
{"type":"Feature","properties":{"book":2,"place":"Medemblik","originalPlace":"Medemblik","description":"","date":"1803-08-04","edges":[{"place":"Enkhuizen","coordinates":[5.29571638888889,52.70437202777778]},{"place":"Hoorn","coordinates":[5.062785722222222,52.64101911111111]}]},"geometry":{"type":"Point","coordinates":[5.106387888888889,52.77379641666666]}},
{"type":"Feature","properties":{"book":2,"place":"Enkhuizen","originalPlace":"Enkhuizen","description":"","date":"1803-08-06","edges":[{"place":"Edam","coordinates":[5.049931111111111,52.51289302777778]}]},"geometry":{"type":"Point","coordinates":[5.29571638888889,52.70437202777778]}},
{"type":"Feature","properties":{"book":2,"place":"Hoorn","originalPlace":"Hoorn","description":"","date":"1803-08-08","edges":[{"place":"Alkmaar","coordinates":[4.752936833333333,52.63193513888889]},{"place":"Edam","coordinates":[5.049931111111111,52.51289302777778]},{"place":"Enkhuizen","coordinates":[5.29571638888889,52.70437202777778]}]},"geometry":{"type":"Point","coordinates":[5.062785722222222,52.64101911111111]}},
{"type":"Feature","properties":{"book":2,"place":"Urk","originalPlace":"Urk","description":"","date":"1803-08-10","edges":[{"place":"Enkhuizen","coordinates":[5.29571638888889,52.70437202777778]}]},"geometry":{"type":"Point","coordinates":[5.596606861111111,52.66293722222222]}},
{"type":"Feature","properties":{"book":2,"place":"Harderwijk","originalPlace":"Harderwijk","description":"","date":"1803-08-15","edges":[{"place":"Urk","coordinates":[5.596606861111111,52.66293722222222]},{"place":"Naarden","coordinates":[5.165325666666666,52.29621572222222]}]},"geometry":{"type":"Point","coordinates":[5.619771027777778,52.34955683333334]}},
{"type":"Feature","properties":{"book":3,"place":"Amersfoort","originalPlace":"Amersfoort","description":"","date":"1805-05-30","edges":[{"place":"Naarden","coordinates":[5.165325666666666,52.29621572222222]},{"place":"Harderwijk","coordinates":[5.619771027777778,52.34955683333334]}]},"geometry":{"type":"Point","coordinates":[5.390397472222222,52.155643222222224]}},
{"type":"Feature","properties":{"book":3,"place":"Veluwe","originalPlace":"Observatoire pref. Loo","description":"","date":"1805-06-07","edges":[{"place":"Amersfoort","coordinates":[5.390397472222222,52.155643222222224]},{"place":"Harderwijk","coordinates":[5.619771027777778,52.34955683333334]}]},"geometry":{"type":"Point","coordinates":[5.861293972222223,52.2351745]}},
{"type":"Feature","properties":{"book":3,"place":"Kampen","originalPlace":"Kampen","description":"","date":"1805-06-26","edges":[{"place":"Blokzijl","coordinates":[5.9643366944444445,52.72775869444445]},{"place":"Harderwijk","coordinates":[5.619771027777778,52.34955683333334]},{"place":"Meppel","coordinates":[6.193451250000001,52.69799033333333]},{"place":"Lemelerberg","coordinates":[6.411266444444444,52.47354266666667]},{"place":"Veluwe","coordinates":[5.861293972222223,52.2351745]},{"place":"Urk","coordinates":[5.596606861111111,52.66293722222222]}]},"geometry":{"type":"Point","coordinates":[5.919630416666667,52.55967222222222]}},
{"type":"Feature","properties":{"book":3,"place":"Zutphen","originalPlace":"Zutphen","description":"","date":"1805-07-07","edges":[{"place":"Veluwe","coordinates":[5.861293972222223,52.2351745]}]},"geometry":{"type":"Point","coordinates":[6.198914111111112,52.140120805555554]}},
{"type":"Feature","properties":{"book":3,"place":"Imbosch","originalPlace":"Signal Imbosch","description":"","date":"1805-07-16","edges":[{"place":"Veluwe","coordinates":[5.861293972222223,52.2351745]},{"place":"Zutphen","coordinates":[6.198914111111112,52.140120805555554]}]},"geometry":{"type":"Point","coordinates":[5.997640861111111,52.037351916666665]}},
{"type":"Feature","properties":{"book":3,"place":"Rhenen","originalPlace":"Rhenen","description":"","date":"1805-08-04","edges":[{"place":"Amersfoort","coordinates":[5.390397472222222,52.155643222222224]},{"place":"Gorinchem","coordinates":[4.97266,51.82955]},{"place":"Imbosch","coordinates":[5.997640861111111,52.037351916666665]},{"place":"Veluwe","coordinates":[5.861293972222223,52.2351745]}]},"geometry":{"type":"Point","coordinates":[5.567464611111111,51.957366138888894]}},
{"type":"Feature","properties":{"book":3,"place":"Den Bosch","originalPlace":"s-Hertogenbosch","description":"","date":"1805-08-11","edges":[{"place":"Breda","coordinates":[4.777659944444444,51.58935072222222]},{"place":"Rhenen","coordinates":[5.567464611111111,51.957366138888894]},{"place":"Hilvarenbeek","coordinates":[5.139323555555555,51.48547661111111]},{"place":"Gorinchem","coordinates":[4.97266,51.82955]}]},"geometry":{"type":"Point","coordinates":[5.3108968333333335,51.68835919444444]}},
{"type":"Feature","properties":{"book":3,"place":"Nederweert","originalPlace":"Nederweert","description":"","date":"1805-08-21","edges":[{"place":"Lommel","coordinates":[5.317706972222222,51.22869991666667]}]},"geometry":{"type":"Point","coordinates":[5.751446444444444,51.28628738888889]}},
{"type":"Feature","properties":{"book":3,"place":"Helmond","originalPlace":"Helmond","description":"","date":"1805-08-24","edges":[{"place":"Den Bosch","coordinates":[5.3108968333333335,51.68835919444444]},{"place":"Nederweert","coordinates":[5.751446444444444,51.28628738888889]},{"place":"Lommel","coordinates":[5.317706972222222,51.22869991666667]},{"place":"Hilvarenbeek","coordinates":[5.139323555555555,51.48547661111111]}]},"geometry":{"type":"Point","coordinates":[5.65941825,51.47880441666667]}},
{"type":"Feature","properties":{"book":3,"place":"Grave","originalPlace":"Grave","description":"","date":"1805-09-02","edges":[{"place":"Den Bosch","coordinates":[5.3108968333333335,51.68835919444444]},{"place":"Helmond","coordinates":[5.65941825,51.47880441666667]},{"place":"Rhenen","coordinates":[5.567464611111111,51.957366138888894]}]},"geometry":{"type":"Point","coordinates":[5.743389444444444,51.760425444444444]}},
{"type":"Feature","properties":{"book":3,"place":"Vierlingsbeek","originalPlace":"Vierlingsbeek","description":"","date":"1805-09-09","edges":[{"place":"Grave","coordinates":[5.743389444444444,51.760425444444444]},{"place":"Helmond","coordinates":[5.65941825,51.47880441666667]},{"place":"Nederweert","coordinates":[5.751446444444444,51.28628738888889]}]},"geometry":{"type":"Point","coordinates":[6.014215138888889,51.596634083333335]}},
{"type":"Feature","properties":{"book":3,"place":"Nijmegen","originalPlace":"Nijmegen","description":"","date":"1805-09-15","edges":[{"place":"Grave","coordinates":[5.743389444444444,51.760425444444444]},{"place":"Imbosch","coordinates":[5.997640861111111,52.037351916666665]},{"place":"Vierlingsbeek","coordinates":[6.014215138888889,51.596634083333335]},{"place":"Rhenen","coordinates":[5.567464611111111,51.957366138888894]}]},"geometry":{"type":"Point","coordinates":[5.8657520000000005,51.84835338888889]}},
{"type":"Feature","properties":{"book":4,"place":"Hettenheuvel","originalPlace":"Signal au Hettenheuvel","description":"","date":"1807-06-01","edges":[{"place":"Zutphen","coordinates":[6.198914111111112,52.140120805555554]},{"place":"Imbosch","coordinates":[5.997640861111111,52.037351916666665]},{"place":"Nijmegen","coordinates":[5.8657520000000005,51.84835338888889]}]},"geometry":{"type":"Point","coordinates":[6.238158916666666,51.92150236111111]}},
{"type":"Feature","properties":{"book":4,"place":"Herikerberg","originalPlace":"Signal au Harickerberg","description":"","date":"1807-06-25","edges":[{"place":"Zutphen","coordinates":[6.198914111111112,52.140120805555554]}]},"geometry":{"type":"Point","coordinates":[6.543790194444445,52.23618169444445]}},
{"type":"Feature","properties":{"book":4,"place":"Groenlo","originalPlace":"Groll","description":"","date":"1807-07-07","edges":[{"place":"Herikerberg","coordinates":[6.543790194444445,52.23618169444445]},{"place":"Hettenheuvel","coordinates":[6.238158916666666,51.92150236111111]},{"place":"Zutphen","coordinates":[6.198914111111112,52.140120805555554]}]},"geometry":{"type":"Point","coordinates":[6.61781,52.04234]}},
{"type":"Feature","properties":{"book":4,"place":"Bocholt","originalPlace":"Boekholt","description":"","date":"1807-07-11","edges":[{"place":"Hettenheuvel","coordinates":[6.238158916666666,51.92150236111111]},{"place":"Groenlo","coordinates":[6.61781,52.04234]}]},"geometry":{"type":"Point","coordinates":[6.617476611111111,51.838552416666666]}},
{"type":"Feature","properties":{"book":4,"place":"Ahaus","originalPlace":"Ahaus","description":"","date":"1807-07-20","edges":[{"place":"Bocholt","coordinates":[6.617476611111111,51.838552416666666]},{"place":"Groenlo","coordinates":[6.61781,52.04234]},{"place":"Herikerberg","coordinates":[6.543790194444445,52.23618169444445]}]},"geometry":{"type":"Point","coordinates":[7.0105349722222225,52.076303583333335]}},
{"type":"Feature","properties":{"book":4,"place":"Oldenzaal","originalPlace":"Oldenzaal","description":"","date":"1807-07-26","edges":[{"place":"Ahaus","coordinates":[7.0105349722222225,52.076303583333335]},{"place":"Herikerberg","coordinates":[6.543790194444445,52.23618169444445]}]},"geometry":{"type":"Point","coordinates":[6.9324746388888885,52.31289233333333]}},
{"type":"Feature","properties":{"book":4,"place":"Bentheim","originalPlace":"Bentheim (Chateau)","description":"","date":"1807-07-29","edges":[{"place":"Ahaus","coordinates":[7.0105349722222225,52.076303583333335]},{"place":"Oldenzaal","coordinates":[6.9324746388888885,52.31289233333333]}]},"geometry":{"type":"Point","coordinates":[7.161101138888888,52.302889]}},
{"type":"Feature","properties":{"book":4,"place":"Hesepe","originalPlace":"Kirch Hesepe","description":"","date":"1807-08-04","edges":[{"place":"Bentheim","coordinates":[7.161101138888888,52.302889]}]},"geometry":{"type":"Point","coordinates":[7.240562277777778,52.62561436111111]}},
{"type":"Feature","properties":{"book":4,"place":"Uelsen","originalPlace":"Signal pred d'Ulsen","description":"","date":"1807-08-08","edges":[{"place":"Bentheim","coordinates":[7.161101138888888,52.302889]},{"place":"Hesepe","coordinates":[7.240562277777778,52.62561436111111]},{"place":"Oldenzaal","coordinates":[6.9324746388888885,52.31289233333333]}]},"geometry":{"type":"Point","coordinates":[6.873901694444444,52.513189805555555]}},
{"type":"Feature","properties":{"book":4,"place":"Coevorden","originalPlace":"Coevoorden","description":"","date":"1807-08-13","edges":[{"place":"Beilen","coordinates":[6.519855166666667,52.858714194444445]},{"place":"Hesepe","coordinates":[7.240562277777778,52.62561436111111]},{"place":"Uelsen","coordinates":[6.873901694444444,52.513189805555555]},{"place":"Lemelerberg","coordinates":[6.411266444444444,52.47354266666667]}]},"geometry":{"type":"Point","coordinates":[6.7436436111111115,52.66117791666667]}},
{"type":"Feature","properties":{"book":4,"place":"Lemelerberg","originalPlace":"Signal Lemelerberg","description":"","date":"1807-08-16","edges":[{"place":"Herikerberg","coordinates":[6.543790194444445,52.23618169444445]},{"place":"Uelsen","coordinates":[6.873901694444444,52.513189805555555]},{"place":"Oldenzaal","coordinates":[6.9324746388888885,52.31289233333333]},{"place":"Zutphen","coordinates":[6.198914111111112,52.140120805555554]},{"place":"Veluwe","coordinates":[5.861293972222223,52.2351745]}]},"geometry":{"type":"Point","coordinates":[6.411266444444444,52.47354266666667]}},
{"type":"Feature","properties":{"book":5,"place":"Lemelerberg","originalPlace":"Signal au Lemelerberg","description":"","date":"1807-08-17","edges":[{"place":"Herikerberg","coordinates":[6.543790194444445,52.23618169444445]},{"place":"Uelsen","coordinates":[6.873901694444444,52.513189805555555]},{"place":"Oldenzaal","coordinates":[6.9324746388888885,52.31289233333333]},{"place":"Zutphen","coordinates":[6.198914111111112,52.140120805555554]},{"place":"Veluwe","coordinates":[5.861293972222223,52.2351745]}]},"geometry":{"type":"Point","coordinates":[6.411266444444444,52.47354266666667]}},
{"type":"Feature","properties":{"book":5,"place":"Meppel","originalPlace":"Meppel","description":"","date":"1807-08-23","edges":[{"place":"Lemelerberg","coordinates":[6.411266444444444,52.47354266666667]}]},"geometry":{"type":"Point","coordinates":[6.193451250000001,52.69799033333333]}},
{"type":"Feature","properties":{"book":5,"place":"Blokzijl","originalPlace":"Blokzyl","description":"","date":"1807-08-27","edges":[{"place":"Urk","coordinates":[5.596606861111111,52.66293722222222]},{"place":"Meppel","coordinates":[6.193451250000001,52.69799033333333]}]},"geometry":{"type":"Point","coordinates":[5.9643366944444445,52.72775869444445]}},
{"type":"Feature","properties":{"book":5,"place":"Lemmer","originalPlace":"Lemmer","description":"","date":"1807-08-29","edges":[{"place":"Blokzijl","coordinates":[5.9643366944444445,52.72775869444445]},{"place":"Urk","coordinates":[5.596606861111111,52.66293722222222]}]},"geometry":{"type":"Point","coordinates":[5.714362638888889,52.845533888888895]}},
{"type":"Feature","properties":{"book":5,"place":"Robbezand","originalPlace":"Signal a Robbezand","description":"","date":"1807-09-05","edges":[]},"geometry":{"type":"Point","coordinates":[5.151526444444444,53.063056305555556]}},
{"type":"Feature","properties":{"book":5,"place":"Medemblik","originalPlace":"Medemblik","description":"","date":"1807-09-17","edges":[{"place":"Enkhuizen","coordinates":[5.29571638888889,52.70437202777778]},{"place":"Hoorn","coordinates":[5.062785722222222,52.64101911111111]}]},"geometry":{"type":"Point","coordinates":[5.106387888888889,52.77379641666666]}},
{"type":"Feature","properties":{"book":5,"place":"Schagen","originalPlace":"Schagen","description":"","date":"1807-09-19","edges":[{"place":"Alkmaar","coordinates":[4.752936833333333,52.63193513888889]},{"place":"Hoorn","coordinates":[5.062785722222222,52.64101911111111]},{"place":"Medemblik","coordinates":[5.106387888888889,52.77379641666666]}]},"geometry":{"type":"Point","coordinates":[4.798949666666667,52.78726847222222]}},
{"type":"Feature","properties":{"book":5,"place":"Oosterland","originalPlace":"Oosterland a Wieringue","description":"","date":"1807-09-21","edges":[{"place":"Medemblik","coordinates":[5.106387888888889,52.77379641666666]},{"place":"Robbezand","coordinates":[5.151526444444444,53.063056305555556]},{"place":"Schagen","coordinates":[4.798949666666667,52.78726847222222]}]},"geometry":{"type":"Point","coordinates":[5.013460805555555,52.93206922222222]}},
{"type":"Feature","properties":{"book":5,"place":"Kijkduin","originalPlace":"Signal de Kijkduin","description":"","date":"1807-09-24","edges":[{"place":"Schagen","coordinates":[4.798949666666667,52.78726847222222]},{"place":"Oosterland","coordinates":[5.013460805555555,52.93206922222222]}]},"geometry":{"type":"Point","coordinates":[4.724343583333333,52.95171783333333]}},
{"type":"Feature","properties":{"book":5,"place":"Oosterend","originalPlace":"Oosterend a Texel","description":"","date":"1807-09-25","edges":[{"place":"Kijkduin","coordinates":[4.724343583333333,52.95171783333333]},{"place":"Oosterland","coordinates":[5.013460805555555,52.93206922222222]},{"place":"Robbezand","coordinates":[5.151526444444444,53.063056305555556]}]},"geometry":{"type":"Point","coordinates":[4.87594,53.084868444444446]}},
{"type":"Feature","properties":{"book":5,"place":"Vlieland","originalPlace":"Le Tanel a Vlieland","description":"","date":"1807-09-28","edges":[{"place":"Robbezand","coordinates":[5.151526444444444,53.063056305555556]},{"place":"Oosterend","coordinates":[4.87594,53.084868444444446]}]},"geometry":{"type":"Point","coordinates":[5.061154416666667,53.29667661111111]}},
{"type":"Feature","properties":{"book":5,"place":"Midsland","originalPlace":"Midsland a Terschelling","description":"","date":"1807-09-29","edges":[{"place":"Vlieland","coordinates":[5.061154416666667,53.29667661111111]}]},"geometry":{"type":"Point","coordinates":[5.28504,53.38298]}},
{"type":"Feature","properties":{"book":5,"place":"Leeuwarden","originalPlace":"Leeuwarden","description":"","date":"1807-10-02","edges":[{"place":"Ballum","coordinates":[5.69115663888889,53.44212425]},{"place":"Drachten","coordinates":[6.1045000555555555,53.10711916666667]},{"place":"Harlingen","coordinates":[5.415180611111111,53.174894861111106]},{"place":"Sneek","coordinates":[5.661878722222222,53.032617916666666]}]},"geometry":{"type":"Point","coordinates":[5.793071,53.2037835]}},
{"type":"Feature","properties":{"book":5,"place":"Harlingen","originalPlace":"Harlingen","description":"Tour de la Petite Eglise","date":"1807-10-07","edges":[{"place":"Vlieland","coordinates":[5.061154416666667,53.29667661111111]},{"place":"Midsland","coordinates":[5.28504,53.38298]},{"place":"Robbezand","coordinates":[5.151526444444444,53.063056305555556]}]},"geometry":{"type":"Point","coordinates":[5.415180611111111,53.174894861111106]}},
{"type":"Feature","properties":{"book":5,"place":"Stavoren","originalPlace":"Stavoren","description":"","date":"1807-10-13","edges":[{"place":"Enkhuizen","coordinates":[5.29571638888889,52.70437202777778]},{"place":"Harlingen","coordinates":[5.415180611111111,53.174894861111106]},{"place":"Lemmer","coordinates":[5.714362638888889,52.845533888888895]},{"place":"Medemblik","coordinates":[5.106387888888889,52.77379641666666]},{"place":"Oosterland","coordinates":[5.013460805555555,52.93206922222222]},{"place":"Robbezand","coordinates":[5.151526444444444,53.063056305555556]},{"place":"Urk","coordinates":[5.596606861111111,52.66293722222222]}]},"geometry":{"type":"Point","coordinates":[5.363477111111111,52.88262088888889]}},
{"type":"Feature","properties":{"book":5,"place":"Sneek","originalPlace":"Sneek","description":"","date":"1807-10-16","edges":[{"place":"Harlingen","coordinates":[5.415180611111111,53.174894861111106]},{"place":"Lemmer","coordinates":[5.714362638888889,52.845533888888895]},{"place":"Stavoren","coordinates":[5.363477111111111,52.88262088888889]}]},"geometry":{"type":"Point","coordinates":[5.661878722222222,53.032617916666666]}},
{"type":"Feature","properties":{"book":5,"place":"Kampen","originalPlace":"Campen","description":"","date":"1807-10-22","edges":[{"place":"Blokzijl","coordinates":[5.9643366944444445,52.72775869444445]},{"place":"Harderwijk","coordinates":[5.619771027777778,52.34955683333334]},{"place":"Meppel","coordinates":[6.193451250000001,52.69799033333333]},{"place":"Lemelerberg","coordinates":[6.411266444444444,52.47354266666667]},{"place":"Veluwe","coordinates":[5.861293972222223,52.2351745]},{"place":"Urk","coordinates":[5.596606861111111,52.66293722222222]}]},"geometry":{"type":"Point","coordinates":[5.919630416666667,52.55967222222222]}},
{"type":"Feature","properties":{"book":5,"place":"Utrecht","originalPlace":"Utrecht","description":"","date":"1808-03-13","edges":[{"place":"Amersfoort","coordinates":[5.390397472222222,52.155643222222224]},{"place":"Amsterdam","coordinates":[4.886434888888889,52.37505688888889]},{"place":"Gorinchem","coordinates":[4.97266,51.82955]},{"place":"Naarden","coordinates":[5.165325666666666,52.29621572222222]},{"place":"Nieuwkoop","coordinates":[4.77977,52.15046]},{"place":"Rhenen","coordinates":[5.567464611111111,51.957366138888894]}]},"geometry":{"type":"Point","coordinates":[5.124360527777778,52.09109677777778]}},
{"type":"Feature","properties":{"book":6,"place":"Leiden","originalPlace":"Leide","description":"Tour de l'Eglise Catholique","date":"1810-04-06","edges":[{"place":"Haarlem","coordinates":[4.639968916666667,52.38160038888889]},{"place":"Nieuwkoop","coordinates":[4.77977,52.15046]}]},"geometry":{"type":"Point","coordinates":[4.494308277777778,52.1564915]}},
{"type":"Feature","properties":{"book":6,"place":"Gouda","originalPlace":"Gouda","description":"","date":"1810-04-12","edges":[{"place":"Gorinchem","coordinates":[4.97266,51.82955]},{"place":"Utrecht","coordinates":[5.124360527777778,52.09109677777778]},{"place":"Nieuwkoop","coordinates":[4.77977,52.15046]},{"place":"Leiden","coordinates":[4.494308277777778,52.1564915]}]},"geometry":{"type":"Point","coordinates":[4.713431305555556,52.01114116666667]}},
{"type":"Feature","properties":{"book":6,"place":"Dordrecht","originalPlace":"Dordrecht","description":"","date":"1810-04-15","edges":[{"place":"Breda","coordinates":[4.777659944444444,51.58935072222222]},{"place":"Gouda","coordinates":[4.713431305555556,52.01114116666667]},{"place":"Gorinchem","coordinates":[4.97266,51.82955]},{"place":"Willemstad","coordinates":[4.440558972222222,51.692307694444445]}]},"geometry":{"type":"Point","coordinates":[4.662706888888889,51.81457977777777]}},
{"type":"Feature","properties":{"book":6,"place":"Den Haag","originalPlace":"La Hage","description":"Clocher de St Jacques","date":"1810-04-26","edges":[{"place":"Brielle","coordinates":[4.16225,51.90264]},{"place":"Leiden","coordinates":[4.494308277777778,52.1564915]}]},"geometry":{"type":"Point","coordinates":[4.3091812222222226,52.07778841666667]}},
{"type":"Feature","properties":{"book":6,"place":"Den Haag","originalPlace":"Observatoire de la Harens a La Hage","description":"","date":"1810-04-30","edges":[{"place":"Brielle","coordinates":[4.16225,51.90264]},{"place":"Leiden","coordinates":[4.494308277777778,52.1564915]}]},"geometry":{"type":"Point","coordinates":[4.3091812222222226,52.07778841666667]}},
{"type":"Feature","properties":{"book":6,"place":"Rotterdam","originalPlace":"Rotterdam","description":"","date":"1810-05-01","edges":[{"place":"Brielle","coordinates":[4.16225,51.90264]},{"place":"Den Haag","coordinates":[4.3091812222222226,52.07778841666667]},{"place":"Dordrecht","coordinates":[4.662706888888889,51.81457977777777]},{"place":"Gouda","coordinates":[4.713431305555556,52.01114116666667]},{"place":"Leiden","coordinates":[4.494308277777778,52.1564915]},{"place":"Willemstad","coordinates":[4.440558972222222,51.692307694444445]}]},"geometry":{"type":"Point","coordinates":[4.487647222222222,51.92186258333333]}},
{"type":"Feature","properties":{"book":6,"place":"Ballum","originalPlace":"Ballum (Chateau)","description":"","date":"1810-05-22","edges":[{"place":"Midsland","coordinates":[5.28504,53.38298]},{"place":"Harlingen","coordinates":[5.415180611111111,53.174894861111106]}]},"geometry":{"type":"Point","coordinates":[5.69115663888889,53.44212425]}},
{"type":"Feature","properties":{"book":6,"place":"Oldeholtpade","originalPlace":"Olde Holtpade","description":"","date":"1810-05-29","edges":[{"place":"Blokzijl","coordinates":[5.9643366944444445,52.72775869444445]},{"place":"Lemmer","coordinates":[5.714362638888889,52.845533888888895]},{"place":"Meppel","coordinates":[6.193451250000001,52.69799033333333]},{"place":"Sneek","coordinates":[5.661878722222222,53.032617916666666]}]},"geometry":{"type":"Point","coordinates":[6.055176972222222,52.89575080555556]}},
{"type":"Feature","properties":{"book":6,"place":"Drachten","originalPlace":"Drachten","description":"","date":"1810-06-28","edges":[{"place":"Oldeholtpade","coordinates":[6.055176972222222,52.89575080555556]},{"place":"Sneek","coordinates":[5.661878722222222,53.032617916666666]}]},"geometry":{"type":"Point","coordinates":[6.1045000555555555,53.10711916666667]}},
{"type":"Feature","properties":{"book":6,"place":"Leeuwarden","originalPlace":"Leeuwarden","description":"","date":"1810-07-03","edges":[{"place":"Ballum","coordinates":[5.69115663888889,53.44212425]},{"place":"Drachten","coordinates":[6.1045000555555555,53.10711916666667]},{"place":"Harlingen","coordinates":[5.415180611111111,53.174894861111106]},{"place":"Sneek","coordinates":[5.661878722222222,53.032617916666666]}]},"geometry":{"type":"Point","coordinates":[5.793071,53.2037835]}},
{"type":"Feature","properties":{"book":6,"place":"Dokkum","originalPlace":"Dockum","description":"","date":"1810-07-06","edges":[{"place":"Ballum","coordinates":[5.69115663888889,53.44212425]},{"place":"Drachten","coordinates":[6.1045000555555555,53.10711916666667]},{"place":"Leeuwarden","coordinates":[5.793071,53.2037835]}]},"geometry":{"type":"Point","coordinates":[6.001079861111111,53.327727055555556]}},
{"type":"Feature","properties":{"book":6,"place":"Oosterwolde","originalPlace":"Oosterwolde","description":"","date":"1810-07-10","edges":[{"place":"Drachten","coordinates":[6.1045000555555555,53.10711916666667]},{"place":"Oldeholtpade","coordinates":[6.055176972222222,52.89575080555556]}]},"geometry":{"type":"Point","coordinates":[6.296794138888889,52.994553833333335]}},
{"type":"Feature","properties":{"book":6,"place":"Beilen","originalPlace":"Beilen","description":"","date":"1810-07-12","edges":[{"place":"Oosterwolde","coordinates":[6.296794138888889,52.994553833333335]},{"place":"Lemelerberg","coordinates":[6.411266444444444,52.47354266666667]},{"place":"Meppel","coordinates":[6.193451250000001,52.69799033333333]},{"place":"Oldeholtpade","coordinates":[6.055176972222222,52.89575080555556]}]},"geometry":{"type":"Point","coordinates":[6.519855166666667,52.858714194444445]}},
{"type":"Feature","properties":{"book":6,"place":"Ter Apel","originalPlace":"Ter Apel","description":"","date":"1810-08-03","edges":[{"place":"Gieten","coordinates":[6.767864527777778,53.00626536111111]}]},"geometry":{"type":"Point","coordinates":[7.079199388888889,52.876769027777776]}},
{"type":"Feature","properties":{"book":6,"place":"Rolde","originalPlace":"Rolde","description":"","date":"1810-07-16","edges":[{"place":"Beilen","coordinates":[6.519855166666667,52.858714194444445]},{"place":"Gieten","coordinates":[6.767864527777778,53.00626536111111]},{"place":"Oosterwolde","coordinates":[6.296794138888889,52.994553833333335]},{"place":"Sleen","coordinates":[6.806566722222223,52.776657888888884]}]},"geometry":{"type":"Point","coordinates":[6.6495318333333335,52.989646694444446]}},
{"type":"Feature","properties":{"book":7,"place":"Rolde","originalPlace":"Rolde","description":"","date":"1810-08-10","edges":[{"place":"Beilen","coordinates":[6.519855166666667,52.858714194444445]},{"place":"Gieten","coordinates":[6.767864527777778,53.00626536111111]},{"place":"Oosterwolde","coordinates":[6.296794138888889,52.994553833333335]},{"place":"Sleen","coordinates":[6.806566722222223,52.776657888888884]}]},"geometry":{"type":"Point","coordinates":[6.6495318333333335,52.989646694444446]}},
{"type":"Feature","properties":{"book":7,"place":"Gieten","originalPlace":"Gieten","description":"","date":"1810-07-20","edges":[{"place":"Beilen","coordinates":[6.519855166666667,52.858714194444445]}]},"geometry":{"type":"Point","coordinates":[6.767864527777778,53.00626536111111]}},
{"type":"Feature","properties":{"book":7,"place":"Coevorden","originalPlace":"Coevorden","description":"","date":"1810-07-24","edges":[{"place":"Beilen","coordinates":[6.519855166666667,52.858714194444445]},{"place":"Hesepe","coordinates":[7.240562277777778,52.62561436111111]},{"place":"Uelsen","coordinates":[6.873901694444444,52.513189805555555]},{"place":"Lemelerberg","coordinates":[6.411266444444444,52.47354266666667]}]},"geometry":{"type":"Point","coordinates":[6.7436436111111115,52.66117791666667]}},
{"type":"Feature","properties":{"book":7,"place":"Sleen","originalPlace":"Sleen","description":"","date":"1810-07-27","edges":[{"place":"Beilen","coordinates":[6.519855166666667,52.858714194444445]},{"place":"Coevorden","coordinates":[6.7436436111111115,52.66117791666667]},{"place":"Gieten","coordinates":[6.767864527777778,53.00626536111111]}]},"geometry":{"type":"Point","coordinates":[6.806566722222223,52.776657888888884]}},
{"type":"Feature","properties":{"book":7,"place":"Onstwedde","originalPlace":"Onstwedde","description":"","date":"1810-08-19","edges":[{"place":"Gieten","coordinates":[6.767864527777778,53.00626536111111]},{"place":"Ter Apel","coordinates":[7.079199388888889,52.876769027777776]},{"place":"Sleen","coordinates":[6.806566722222223,52.776657888888884]}]},"geometry":{"type":"Point","coordinates":[7.048437833333334,53.031334888888885]}},
{"type":"Feature","properties":{"book":7,"place":"Uithuizermeeden","originalPlace":"Uithuizen a Meden","description":"","date":"1810-08-27","edges":[{"place":"Groningen","coordinates":[6.572065388888889,53.22021758333334]},{"place":"Holwierde","coordinates":[6.874774416666667,53.35826319444445]},{"place":"Hornhuizen","coordinates":[6.363083944444444,53.38875766666666]},{"place":"Pilsum","coordinates":[7.067004750000001,53.48400138888889]}]},"geometry":{"type":"Point","coordinates":[6.713654722222222,53.40919847222222]}},
{"type":"Feature","properties":{"book":7,"place":"Hornhuizen","originalPlace":"Hornhuizen","description":"","date":"1810-09-03","edges":[{"place":"Dokkum","coordinates":[6.001079861111111,53.327727055555556]}]},"geometry":{"type":"Point","coordinates":[6.363083944444444,53.38875766666666]}},
{"type":"Feature","properties":{"book":7,"place":"Groningen","originalPlace":"Groningue","description":"Clocher de St. Martin","date":"1810-09-11","edges":[{"place":"Dokkum","coordinates":[6.001079861111111,53.327727055555556]},{"place":"Drachten","coordinates":[6.1045000555555555,53.10711916666667]},{"place":"Hornhuizen","coordinates":[6.363083944444444,53.38875766666666]},{"place":"Onstwedde","coordinates":[7.048437833333334,53.031334888888885]},{"place":"Rolde","coordinates":[6.6495318333333335,52.989646694444446]},{"place":"Oosterwolde","coordinates":[6.296794138888889,52.994553833333335]}]},"geometry":{"type":"Point","coordinates":[6.572065388888889,53.22021758333334]}},
{"type":"Feature","properties":{"book":7,"place":"Midwolda","originalPlace":"Midwolde","description":"","date":"1810-09-26","edges":[{"place":"Emden","coordinates":[7.210951416666667,53.36776]},{"place":"Groningen","coordinates":[6.572065388888889,53.22021758333334]},{"place":"Holwierde","coordinates":[6.874774416666667,53.35826319444445]},{"place":"Leer","coordinates":[7.454180277777778,53.22955830555556]},{"place":"Onstwedde","coordinates":[7.048437833333334,53.031334888888885]}]},"geometry":{"type":"Point","coordinates":[7.014133611111111,53.19501616666666]}},
{"type":"Feature","properties":{"book":7,"place":"Holwierde","originalPlace":"Holwierde","description":"","date":"1810-10-05","edges":[{"place":"Groningen","coordinates":[6.572065388888889,53.22021758333334]}]},"geometry":{"type":"Point","coordinates":[6.874774416666667,53.35826319444445]}},
{"type":"Feature","properties":{"book":8,"place":"Leer","originalPlace":"Leer","description":"","date":"1811-06-24","edges":[]},"geometry":{"type":"Point","coordinates":[7.454180277777778,53.22955830555556]}},
{"type":"Feature","properties":{"book":8,"place":"Emden","originalPlace":"Emden","description":"","date":"1811-07-06","edges":[{"place":"Holwierde","coordinates":[6.874774416666667,53.35826319444445]},{"place":"Leer","coordinates":[7.454180277777778,53.22955830555556]}]},"geometry":{"type":"Point","coordinates":[7.210951416666667,53.36776]}},
{"type":"Feature","properties":{"book":8,"place":"Pilsum","originalPlace":"Pilsum","description":"","date":"1811-07-08","edges":[{"place":"Emden","coordinates":[7.210951416666667,53.36776]},{"place":"Holwierde","coordinates":[6.874774416666667,53.35826319444445]}]},"geometry":{"type":"Point","coordinates":[7.067004750000001,53.48400138888889]}},
{"type":"Feature","properties":{"book":8,"place":"Aurich","originalPlace":"Aurich","description":"","date":"1811-07-11","edges":[{"place":"Emden","coordinates":[7.210951416666667,53.36776]},{"place":"Leer","coordinates":[7.454180277777778,53.22955830555556]}]},"geometry":{"type":"Point","coordinates":[7.48432663888889,53.470476500000004]}},
{"type":"Feature","properties":{"book":9,"place":"Strakholt","originalPlace":"Signal Strackholt","description":"","date":"1811-07-17","edges":[]},"geometry":{"type":"Point","coordinates":[7.644949972222222,53.36982116666667]}},
{"type":"Feature","properties":{"book":9,"place":"Esens","originalPlace":"Esens","description":"","date":"1811-07-20","edges":[{"place":"Aurich","coordinates":[7.48432663888889,53.470476500000004]}]},"geometry":{"type":"Point","coordinates":[7.617262722222223,53.64856944444444]}},
{"type":"Feature","properties":{"book":9,"place":"Hage","originalPlace":"Hagen","description":"","date":"1811-07-22","edges":[{"place":"Aurich","coordinates":[7.48432663888889,53.470476500000004]},{"place":"Emden","coordinates":[7.210951416666667,53.36776]},{"place":"Esens","coordinates":[7.617262722222223,53.64856944444444]},{"place":"Pilsum","coordinates":[7.067004750000001,53.48400138888889]}]},"geometry":{"type":"Point","coordinates":[7.2880131666666665,53.60334486111111]}},
{"type":"Feature","properties":{"book":9,"place":"Jever","originalPlace":"Jever","description":"Chateau de Jever","date":"1811-07-27","edges":[]},"geometry":{"type":"Point","coordinates":[7.907554194444444,53.573175722222224]}},
{"type":"Feature","properties":{"book":9,"place":"Varel","originalPlace":"Varel","description":"","date":"1811-08-01","edges":[]},"geometry":{"type":"Point","coordinates":[8.141397833333333,53.398287527777775]}},
{"type":"Feature","properties":{"book":9,"place":"Westerstede","originalPlace":"Westersteden","description":"","date":"1811-08-03","edges":[]},"geometry":{"type":"Point","coordinates":[7.932636333333333,53.258379194444444]}},
{"type":"Feature","properties":{"book":9,"place":"Midwolda","originalPlace":"Midwolde","description":"","date":"1811-09-10","edges":[{"place":"Emden","coordinates":[7.210951416666667,53.36776]},{"place":"Groningen","coordinates":[6.572065388888889,53.22021758333334]},{"place":"Holwierde","coordinates":[6.874774416666667,53.35826319444445]},{"place":"Leer","coordinates":[7.454180277777778,53.22955830555556]},{"place":"Onstwedde","coordinates":[7.048437833333334,53.031334888888885]}]},"geometry":{"type":"Point","coordinates":[7.014133611111111,53.19501616666666]}},
{"type":"Feature","properties":{"book":9,"place":"Uithuizermeeden","originalPlace":"Uithuistermeden","description":"","date":"1811-09-12","edges":[{"place":"Groningen","coordinates":[6.572065388888889,53.22021758333334]},{"place":"Holwierde","coordinates":[6.874774416666667,53.35826319444445]},{"place":"Hornhuizen","coordinates":[6.363083944444444,53.38875766666666]},{"place":"Pilsum","coordinates":[7.067004750000001,53.48400138888889]}]},"geometry":{"type":"Point","coordinates":[6.713654722222222,53.40919847222222]}}]}
